[{"@id":"http://nyc.pediacities.com/resource/Museum/alexander_hamilton_u_s_custom_house_1_bowling_grn","OBJECTID":"1","Shape":"(40.703816550000056, -74.01375579499995)","name":"Alexander Hamilton U.S. Custom House","telephone":"(212) 514-3700","url":"http://www.oldnycustomhouse.gov/","streetAddress":"1 Bowling Grn","streetAddress/address2":" ","addressLocality":"New York","postalCode":"10004","loc":"[-74.01375579499995,40.703816550000056]","longitude":"-74.01375579499995","latitude":"40.703816550000056","entityTitle":"alexander_hamilton_u_s_custom_house_1_bowling_grn","@context":"http://schema.org","@type":"Museum"},{"@id":"http://nyc.pediacities.com/resource/Museum/alice_austen_house_museum_2_hylan_blvd","OBJECTID":"2","Shape":"(40.615121171000055, -74.06303178799993)","name":"Alice Austen House Museum","telephone":"(718) 816-4506","url":"http://www.aliceausten.org/","streetAddress":"2 Hylan Blvd","streetAddress/address2":" ","addressLocality":"Staten Island","postalCode":"10305","loc":"[-74.06303178799993,40.615121171000055]","longitude":"-74.06303178799993","latitude":"40.615121171000055","entityTitle":"alice_austen_house_museum_2_hylan_blvd","@context":"http://schema.org","@type":"Museum"},{"@id":"http://nyc.pediacities.com/resource/Museum/american_academy_of_arts_and_letters_633_w_155th_st","OBJECTID":"3","Shape":"(40.83385383400008, -73.94729768499991)","name":"American Academy of Arts and Letters","telephone":"(212) 368-5900","url":"http://www.artsandletters.org/","streetAddress":"633 W. 155th St.","streetAddress/address2":" ","addressLocality":"New York","postalCode":"10032","loc":"[-73.94729768499991,40.83385383400008]","longitude":"-73.94729768499991","latitude":"40.83385383400008","entityTitle":"american_academy_of_arts_and_letters_633_w_155th_st","@context":"http://schema.org","@type":"Museum"},{"@id":"http://nyc.pediacities.com/resource/Museum/american_folk_art_museum_45_west_53rd_street","OBJECTID":"4","Shape":"(40.76162530600004, -73.97810302099992)","name":"American Folk Art Museum","telephone":"(212) 265-1040","url":"http://www.folkartmuseum.org/","streetAddress":"45 West 53rd Street","streetAddress/address2":" ","addressLocality":"New York","postalCode":"10019","loc":"[-73.97810302099992,40.76162530600004]","longitude":"-73.97810302099992","latitude":"40.76162530600004","entityTitle":"american_folk_art_museum_45_west_53rd_street","@context":"http://schema.org","@type":"Museum"},{"@id":"http://nyc.pediacities.com/resource/Museum/american_immigration_history_center_ellis_island","OBJECTID":"5","Shape":"(40.69905659600005, -74.03968483799991)","name":"American Immigration History Center","telephone":"(212) 363-3200","url":"http://www.ellisisland.org/","streetAddress":"Ellis Island","streetAddress/address2":" ","addressLocality":"New York","postalCode":"0","loc":"[-74.03968483799991,40.69905659600005]","longitude":"-74.03968483799991","latitude":"40.69905659600005","entityTitle":"american_immigration_history_center_ellis_island","@context":"http://schema.org","@type":"Museum"},{"@id":"http://nyc.pediacities.com/resource/Museum/american_museum_of_natural_history_central_park_west_at_79th_street","OBJECTID":"6","Shape":"(40.78082656700008, -73.97364816499993)","name":"American Museum of Natural History","telephone":"(212) 769-5100","url":"http://www.amnh.org/","streetAddress":"Central Park West at 79th Street","streetAddress/address2":" ","addressLocality":"New York","postalCode":"10024","loc":"[-73.97364816499993,40.78082656700008]","longitude":"-73.97364816499993","latitude":"40.78082656700008","entityTitle":"american_museum_of_natural_history_central_park_west_at_79th_street","@context":"http://schema.org","@type":"Museum"},{"@id":"http://nyc.pediacities.com/resource/Museum/american_numismatic_society_75_varick_st","OBJECTID":"7","Shape":"(40.723526925000044, -74.00701187899995)","name":"American Numismatic Society","telephone":"(212) 571-4470","url":"http://www.numismatics.org/","streetAddress":"75 Varick St","streetAddress/address2":" 11th Floor","addressLocality":"New York","postalCode":"10013","loc":"[-74.00701187899995,40.723526925000044]","longitude":"-74.00701187899995","latitude":"40.723526925000044","entityTitle":"american_numismatic_society_75_varick_st","@context":"http://schema.org","@type":"Museum"},{"@id":"http://nyc.pediacities.com/resource/Museum/americas_society_680_park_ave","OBJECTID":"8","Shape":"(40.76882456300007, -73.96597045099992)","name":"Americas Society","telephone":"(212) 249-8950","url":"http://as.americas-society.org/","streetAddress":"680 Park Ave.","streetAddress/address2":" ","addressLocality":"New York","postalCode":"10021","loc":"[-73.96597045099992,40.76882456300007]","longitude":"-73.96597045099992","latitude":"40.76882456300007","entityTitle":"americas_society_680_park_ave","@context":"http://schema.org","@type":"Museum"},{"@id":"http://nyc.pediacities.com/resource/Museum/anne_frank_center_usa_38_crosby_street","OBJECTID":"9","Shape":"(40.72112778300004, -73.99963036799994)","name":"Anne Frank Center USA","telephone":"(212) 431-7993","url":"http://www.annefrank.com/","streetAddress":"38 Crosby Street","streetAddress/address2":" 5th Floor","addressLocality":"New York","postalCode":"10012","loc":"[-73.99963036799994,40.72112778300004]","longitude":"-73.99963036799994","latitude":"40.72112778300004","entityTitle":"anne_frank_center_usa_38_crosby_street","@context":"http://schema.org","@type":"Museum"},{"@id":"http://nyc.pediacities.com/resource/Museum/asia_society_725_park_avenue","OBJECTID":"10","Shape":"(40.769834116000084, -73.9642839569999)","name":"Asia Society","telephone":"(212) 288-6400","url":"http://www.asiasociety.org/","streetAddress":"725 Park Avenue","streetAddress/address2":" ","addressLocality":"New York","postalCode":"10021","loc":"[-73.9642839569999,40.769834116000084]","longitude":"-73.9642839569999","latitude":"40.769834116000084","entityTitle":"asia_society_725_park_avenue","@context":"http://schema.org","@type":"Museum"},{"@id":"http://nyc.pediacities.com/resource/Museum/audubon_terrace_broadway_at_155_street","OBJECTID":"11","Shape":"(40.83358261600006, -73.94654590499994)","name":"Audubon Terrace","telephone":" ","url":"http://www.washington-heights.us/history/archives/audubon_terrace_museum_group_102.html","streetAddress":"Broadway at 155 Street","streetAddress/address2":" ","addressLocality":"New York","postalCode":"10032","loc":"[-73.94654590499994,40.83358261600006]","longitude":"-73.94654590499994","latitude":"40.83358261600006","entityTitle":"audubon_terrace_broadway_at_155_street","@context":"http://schema.org","@type":"Museum"},{"@id":"http://nyc.pediacities.com/resource/Museum/bartow_pell_mansion_895_shore_road","OBJECTID":"12","Shape":"(40.87177865100006, -73.80557949899992)","name":"Bartow-Pell Mansion","telephone":"(718) 885-1461","url":"http://bartowpellmansionmuseum.org/index.php","streetAddress":"895 Shore Road","streetAddress/address2":" Pelham Bay Park","addressLocality":"Bronx","postalCode":"10464","loc":"[-73.80557949899992,40.87177865100006]","longitude":"-73.80557949899992","latitude":"40.87177865100006","entityTitle":"bartow_pell_mansion_895_shore_road","@context":"http://schema.org","@type":"Museum"},{"@id":"http://nyc.pediacities.com/resource/Museum/bowne_house_37_01_bowne_street","OBJECTID":"13","Shape":"(40.76288666600004, -73.82489046299992)","name":"Bowne House","telephone":"(718) 359-0528","url":"http://www.bownehouse.org/","streetAddress":"37-01 Bowne Street","streetAddress/address2":" ","addressLocality":"Queens","postalCode":"11354","loc":"[-73.82489046299992,40.76288666600004]","longitude":"-73.82489046299992","latitude":"40.76288666600004","entityTitle":"bowne_house_37_01_bowne_street","@context":"http://schema.org","@type":"Museum"},{"@id":"http://nyc.pediacities.com/resource/Museum/bronx_historical_society_musem_3309_bainbridge_ave","OBJECTID":"14","Shape":"(40.87823677400007, -73.8797487409999)","name":"Bronx Historical Society & Musem","telephone":"(718) 881-8900","url":"http://www.bronxhistoricalsociety.org/","streetAddress":"3309 Bainbridge Ave","streetAddress/address2":" ","addressLocality":"Bronx","postalCode":"10467","loc":"[-73.8797487409999,40.87823677400007]","longitude":"-73.8797487409999","latitude":"40.87823677400007","entityTitle":"bronx_historical_society_musem_3309_bainbridge_ave","@context":"http://schema.org","@type":"Museum"},{"@id":"http://nyc.pediacities.com/resource/Museum/bronx_museum_of_the_arts_bxma_1040_grand_concourse","OBJECTID":"15","Shape":"(40.831030113000054, -73.91975017699991)","name":"Bronx Museum of the Arts (BXMA)","telephone":"(718) 681-6000","url":"http://www.bronxmuseum.org/","streetAddress":"1040 Grand Concourse","streetAddress/address2":" ","addressLocality":"Bronx","postalCode":"10456","loc":"[-73.91975017699991,40.831030113000054]","longitude":"-73.91975017699991","latitude":"40.831030113000054","entityTitle":"bronx_museum_of_the_arts_bxma_1040_grand_concourse","@context":"http://schema.org","@type":"Museum"},{"@id":"http://nyc.pediacities.com/resource/Museum/brooklyn_children_s_museum_145_brooklyn_avenue","OBJECTID":"16","Shape":"(40.67450733000004, -73.94401601399994)","name":"Brooklyn Children's Museum","telephone":"(718) 735-4400","url":"http://www.brooklynkids.org/","streetAddress":"145 Brooklyn Avenue","streetAddress/address2":" ","addressLocality":"Brooklyn","postalCode":"11213","loc":"[-73.94401601399994,40.67450733000004]","longitude":"-73.94401601399994","latitude":"40.67450733000004","entityTitle":"brooklyn_children_s_museum_145_brooklyn_avenue","@context":"http://schema.org","@type":"Museum"},{"@id":"http://nyc.pediacities.com/resource/Museum/brooklyn_historical_society_128_pierrepont_street","OBJECTID":"17","Shape":"(40.694803308000076, -73.99240540399995)","name":"Brooklyn Historical Society","telephone":"(718) 222-4111","url":"http://www.brooklynhistory.org/default/index.html","streetAddress":"128 Pierrepont Street","streetAddress/address2":" ","addressLocality":"Brooklyn","postalCode":"11201","loc":"[-73.99240540399995,40.694803308000076]","longitude":"-73.99240540399995","latitude":"40.694803308000076","entityTitle":"brooklyn_historical_society_128_pierrepont_street","@context":"http://schema.org","@type":"Museum"},{"@id":"http://nyc.pediacities.com/resource/Museum/brooklyn_museum_200_eastern_parkway","OBJECTID":"18","Shape":"(40.671083545000045, -73.96358506799993)","name":"Brooklyn Museum","telephone":"(718) 638-5000","url":"http://www.brooklynmuseum.org/","streetAddress":"200 Eastern Parkway","streetAddress/address2":" ","addressLocality":"Brooklyn","postalCode":"11238","loc":"[-73.96358506799993,40.671083545000045]","longitude":"-73.96358506799993","latitude":"40.671083545000045","entityTitle":"brooklyn_museum_200_eastern_parkway","@context":"http://schema.org","@type":"Museum"},{"@id":"http://nyc.pediacities.com/resource/Museum/chelsea_art_museum_556_west_22nd_street","OBJECTID":"19","Shape":"(40.74789793400004, -74.00731553399993)","name":"Chelsea Art Museum","telephone":"(212) 255-0719","url":"http://www.chelseaartmuseum.org/","streetAddress":"556 West 22nd Street","streetAddress/address2":" ","addressLocality":"New York","postalCode":"10011","loc":"[-74.00731553399993,40.74789793400004]","longitude":"-74.00731553399993","latitude":"40.74789793400004","entityTitle":"chelsea_art_museum_556_west_22nd_street","@context":"http://schema.org","@type":"Museum"},{"@id":"http://nyc.pediacities.com/resource/Museum/children_s_museum_of_manhattan_212_west_83rd_street","OBJECTID":"20","Shape":"(40.785871254000085, -73.97727392099995)","name":"Children's Museum of Manhattan","telephone":"(212) 721-1234","url":"http://www.cmom.org/","streetAddress":"212 West 83rd Street","streetAddress/address2":" ","addressLocality":"New York","postalCode":"10024","loc":"[-73.97727392099995,40.785871254000085]","longitude":"-73.97727392099995","latitude":"40.785871254000085","entityTitle":"children_s_museum_of_manhattan_212_west_83rd_street","@context":"http://schema.org","@type":"Museum"},{"@id":"http://nyc.pediacities.com/resource/Museum/children_s_museum_of_the_arts_182_lafayette_street","OBJECTID":"21","Shape":"(40.72074980300005, -73.99883836099991)","name":"Children's Museum of the Arts","telephone":"(212) 274-0986","url":"http://cmany.org/intro.php?pn=home","streetAddress":"182 Lafayette Street","streetAddress/address2":" ","addressLocality":"New York","postalCode":"10012","loc":"[-73.99883836099991,40.72074980300005]","longitude":"-73.99883836099991","latitude":"40.72074980300005","entityTitle":"children_s_museum_of_the_arts_182_lafayette_street","@context":"http://schema.org","@type":"Museum"},{"@id":"http://nyc.pediacities.com/resource/Museum/cloisters_99_margaret_corbin_drive","OBJECTID":"22","Shape":"(40.864923968000085, -73.93173408699994)","name":"Cloisters","telephone":"(212) 923-3700","url":"http://www.metmuseum.org/cloisters/","streetAddress":"99 Margaret Corbin Drive","streetAddress/address2":" ","addressLocality":"New York","postalCode":"10040","loc":"[-73.93173408699994,40.864923968000085]","longitude":"-73.93173408699994","latitude":"40.864923968000085","entityTitle":"cloisters_99_margaret_corbin_drive","@context":"http://schema.org","@type":"Museum"},{"@id":"http://nyc.pediacities.com/resource/Museum/coney_island_museum_1208_surf_ave","OBJECTID":"23","Shape":"(40.575263576000054, -73.97985598399993)","name":"Coney Island Museum","telephone":"(718) 372-5159","url":"http://www.coneyisland.com/","streetAddress":"1208 Surf Ave","streetAddress/address2":" ","addressLocality":"Brooklyn","postalCode":"11224","loc":"[-73.97985598399993,40.575263576000054]","longitude":"-73.97985598399993","latitude":"40.575263576000054","entityTitle":"coney_island_museum_1208_surf_ave","@context":"http://schema.org","@type":"Museum"},{"@id":"http://nyc.pediacities.com/resource/Museum/cooper_hewitt_national_design_museum_2_east_91st_street","OBJECTID":"24","Shape":"(40.784326074000035, -73.95778161999993)","name":"Cooper-Hewitt, National Design Museum","telephone":"(212) 849-8400","url":"http://www.cooperhewitt.org/","streetAddress":"2 East 91st Street","streetAddress/address2":" ","addressLocality":"New York","postalCode":"10128","loc":"[-73.95778161999993,40.784326074000035]","longitude":"-73.95778161999993","latitude":"40.784326074000035","entityTitle":"cooper_hewitt_national_design_museum_2_east_91st_street","@context":"http://schema.org","@type":"Museum"},{"@id":"http://nyc.pediacities.com/resource/Museum/dahesh_museum_580_madison_avenue","OBJECTID":"25","Shape":"(40.762107306000075, -73.97304190099993)","name":"Dahesh Museum","telephone":"(212) 759-0606","url":"http://www.daheshmuseum.org","streetAddress":"580 Madison Avenue","streetAddress/address2":" ","addressLocality":"New York","postalCode":"10022","loc":"[-73.97304190099993,40.762107306000075]","longitude":"-73.97304190099993","latitude":"40.762107306000075","entityTitle":"dahesh_museum_580_madison_avenue","@context":"http://schema.org","@type":"Museum"},{"@id":"http://nyc.pediacities.com/resource/Museum/dia_at_the_hispanic_society_613_west_155th_street","OBJECTID":"26","Shape":"(40.833302443000036, -73.94649318099994)","name":"Dia at the Hispanic Society","telephone":"(845) 440-0100","url":"http://www.diabeacon.org/","streetAddress":"613 West 155th Street","streetAddress/address2":" ","addressLocality":"New York","postalCode":"10032","loc":"[-73.94649318099994,40.833302443000036]","longitude":"-73.94649318099994","latitude":"40.833302443000036","entityTitle":"dia_at_the_hispanic_society_613_west_155th_street","@context":"http://schema.org","@type":"Museum"},{"@id":"http://nyc.pediacities.com/resource/Museum/dia_art_foundation_535_w_22nd_street","OBJECTID":"27","Shape":"(40.747895260000064, -74.00613537699991)","name":"Dia Art Foundation","telephone":"(212) 989 5566","url":"http://www.diacenter.org/","streetAddress":"535 W 22nd Street","streetAddress/address2":" ","addressLocality":"New York","postalCode":"10011","loc":"[-74.00613537699991,40.747895260000064]","longitude":"-74.00613537699991","latitude":"40.747895260000064","entityTitle":"dia_art_foundation_535_w_22nd_street","@context":"http://schema.org","@type":"Museum"},{"@id":"http://nyc.pediacities.com/resource/Museum/discovery_times_square_exposition_226_w_44th_st","OBJECTID":"28","Shape":"(40.75750141900005, -73.9873186399999)","name":"Discovery Times Square Exposition","telephone":"(866) 987-9692","url":"http://www.discoverytsx.com/nyc/","streetAddress":"226 W 44th St","streetAddress/address2":" ","addressLocality":"New York","postalCode":"1036","loc":"[-73.9873186399999,40.75750141900005]","longitude":"-73.9873186399999","latitude":"40.75750141900005","entityTitle":"discovery_times_square_exposition_226_w_44th_st","@context":"http://schema.org","@type":"Museum"},{"@id":"http://nyc.pediacities.com/resource/Museum/drawing_center_35_wooster_st","OBJECTID":"29","Shape":"(40.722451522000085, -74.00290417199994)","name":"Drawing Center","telephone":"(212) 219-2166","url":"http://www.drawingcenter.org/about_visit.cfm","streetAddress":"35 Wooster St.","streetAddress/address2":" ","addressLocality":"New York","postalCode":"10013","loc":"[-74.00290417199994,40.722451522000085]","longitude":"-74.00290417199994","latitude":"40.722451522000085","entityTitle":"drawing_center_35_wooster_st","@context":"http://schema.org","@type":"Museum"},{"@id":"http://nyc.pediacities.com/resource/Museum/dyckman_farmhouse_4881_broadway","OBJECTID":"30","Shape":"(40.86713125400007, -73.92383914699991)","name":"Dyckman Farmhouse","telephone":"(212) 304-9422","url":"http://www.dyckmanfarmhouse.org/","streetAddress":"4881 Broadway","streetAddress/address2":" ","addressLocality":"New York","postalCode":"10034","loc":"[-73.92383914699991,40.86713125400007]","longitude":"-73.92383914699991","latitude":"40.86713125400007","entityTitle":"dyckman_farmhouse_4881_broadway","@context":"http://schema.org","@type":"Museum"},{"@id":"http://nyc.pediacities.com/resource/Museum/east_village_history_project_308_bowery","OBJECTID":"31","Shape":"(40.72496003700007, -73.99272306099994)","name":"East Village History Project","telephone":"(212) 614-8702","url":"http://leshp.org/","streetAddress":"308 Bowery","streetAddress/address2":" ","addressLocality":"New York","postalCode":"10012","loc":"[-73.99272306099994,40.72496003700007]","longitude":"-73.99272306099994","latitude":"40.72496003700007","entityTitle":"east_village_history_project_308_bowery","@context":"http://schema.org","@type":"Museum"},{"@id":"http://nyc.pediacities.com/resource/Museum/el_museo_del_barrio_1230_fifth_ave","OBJECTID":"32","Shape":"(40.79309925400008, -73.9513676009999)","name":"El Museo del Barrio","telephone":"(212) 831-7272","url":"http://www.elmuseo.org/","streetAddress":"1230 Fifth Ave","streetAddress/address2":" ","addressLocality":"New York","postalCode":"10029","loc":"[-73.9513676009999,40.79309925400008]","longitude":"-73.9513676009999","latitude":"40.79309925400008","entityTitle":"el_museo_del_barrio_1230_fifth_ave","@context":"http://schema.org","@type":"Museum"},{"@id":"http://nyc.pediacities.com/resource/Museum/ellis_island_museum_ellis_island","OBJECTID":"33","Shape":"(40.69820788700008, -74.04132161699994)","name":"Ellis Island Museum","telephone":"(212) 363-3200","url":"http://www.ellisisland.org/","streetAddress":"Ellis Island","streetAddress/address2":" ","addressLocality":"New York","postalCode":"0","loc":"[-74.04132161699994,40.69820788700008]","longitude":"-74.04132161699994","latitude":"40.69820788700008","entityTitle":"ellis_island_museum_ellis_island","@context":"http://schema.org","@type":"Museum"},{"@id":"http://nyc.pediacities.com/resource/Museum/fraunces_tavern_museum_54_pearl_street","OBJECTID":"34","Shape":"(40.70339960900009, -74.01133926299991)","name":"Fraunces Tavern Museum","telephone":"(212) 425-1778","url":"http://www.frauncestavernmuseum.org/","streetAddress":"54 Pearl Street","streetAddress/address2":" ","addressLocality":"New York","postalCode":"10004","loc":"[-74.01133926299991,40.70339960900009]","longitude":"-74.01133926299991","latitude":"40.70339960900009","entityTitle":"fraunces_tavern_museum_54_pearl_street","@context":"http://schema.org","@type":"Museum"},{"@id":"http://nyc.pediacities.com/resource/Museum/frick_collection_1_e_70th_street","OBJECTID":"35","Shape":"(40.77105498700007, -73.96708040599992)","name":"Frick Collection","telephone":"(212) 288-0700","url":"http://www.frick.org/","streetAddress":"1 E. 70th Street","streetAddress/address2":" ","addressLocality":"New York","postalCode":"10021","loc":"[-73.96708040599992,40.77105498700007]","longitude":"-73.96708040599992","latitude":"40.77105498700007","entityTitle":"frick_collection_1_e_70th_street","@context":"http://schema.org","@type":"Museum"},{"@id":"http://nyc.pediacities.com/resource/Museum/garibaldi_meucci_museum_420_tompkins_avenue","OBJECTID":"36","Shape":"(40.61516555800006, -74.07387774199992)","name":"Garibaldi-Meucci Museum","telephone":"(718) 442-1608","url":"http://statenislandusa.com/pages/garibaldi.html","streetAddress":"420 Tompkins Avenue","streetAddress/address2":" ","addressLocality":"Staten Island","postalCode":"10305","loc":"[-74.07387774199992,40.61516555800006]","longitude":"-74.07387774199992","latitude":"40.61516555800006","entityTitle":"garibaldi_meucci_museum_420_tompkins_avenue","@context":"http://schema.org","@type":"Museum"},{"@id":"http://nyc.pediacities.com/resource/Museum/goethe_institut_new_york_1014_fifth_avenue","OBJECTID":"37","Shape":"(40.77916597400008, -73.96174203899994)","name":"Goethe-Institut New York","telephone":"(212) 439-8700","url":"http://www.goethe.de/ins/us/ney/deindex.htm","streetAddress":"1014 Fifth Avenue","streetAddress/address2":" ","addressLocality":"New York","postalCode":"10028","loc":"[-73.96174203899994,40.77916597400008]","longitude":"-73.96174203899994","latitude":"40.77916597400008","entityTitle":"goethe_institut_new_york_1014_fifth_avenue","@context":"http://schema.org","@type":"Museum"},{"@id":"http://nyc.pediacities.com/resource/Museum/gracie_mansion_89th_street_at_east_end_avenue","OBJECTID":"38","Shape":"(40.776113783000085, -73.94306846199993)","name":"Gracie Mansion","telephone":"(212)-570-4751","url":"http://www.nyc.gov/html/om/html/gracie.html","streetAddress":"89th Street at East End Avenue","streetAddress/address2":"Carl Schurz Park","addressLocality":"New York","postalCode":"10128","loc":"[-73.94306846199993,40.776113783000085]","longitude":"-73.94306846199993","latitude":"40.776113783000085","entityTitle":"gracie_mansion_89th_street_at_east_end_avenue","@context":"http://schema.org","@type":"Museum"},{"@id":"http://nyc.pediacities.com/resource/Museum/hall_of_fame_for_great_americans_hall_of_fame_terrace_sedgwick_avenue","OBJECTID":"39","Shape":"(40.858747503000075, -73.91397962899993)","name":"Hall Of Fame For Great Americans","telephone":"(718) 289-5161","url":"http://www.bcc.cuny.edu/hallofFame/","streetAddress":"Hall of Fame Terrace & Sedgwick Avenue","streetAddress/address2":" ","addressLocality":"Bronx","postalCode":"10453","loc":"[-73.91397962899993,40.858747503000075]","longitude":"-73.91397962899993","latitude":"40.858747503000075","entityTitle":"hall_of_fame_for_great_americans_hall_of_fame_terrace_sedgwick_avenue","@context":"http://schema.org","@type":"Museum"},{"@id":"http://nyc.pediacities.com/resource/Museum/harbor_defense_museum_of_fort_hamilton_230_sheridan_loop","OBJECTID":"40","Shape":"(40.60900900100006, -74.0323107769999)","name":"Harbor Defense Museum of Fort Hamilton","telephone":"(718) 630-4349","url":"http://www.harbordefensemuseum.com/","streetAddress":"230 Sheridan Loop","streetAddress/address2":" ","addressLocality":"Brooklyn","postalCode":"11252","loc":"[-74.0323107769999,40.60900900100006]","longitude":"-74.0323107769999","latitude":"40.60900900100006","entityTitle":"harbor_defense_museum_of_fort_hamilton_230_sheridan_loop","@context":"http://schema.org","@type":"Museum"},{"@id":"http://nyc.pediacities.com/resource/Museum/hispanic_society_of_america_museum_613_west_155th_street","OBJECTID":"41","Shape":"(40.83345248000006, -73.94682282199994)","name":"Hispanic Society of America Museum","telephone":"(212) 926-2234","url":"http://www.hispanicsociety.org/","streetAddress":"613 West 155th Street","streetAddress/address2":" ","addressLocality":"New York","postalCode":"10032","loc":"[-73.94682282199994,40.83345248000006]","longitude":"-73.94682282199994","latitude":"40.83345248000006","entityTitle":"hispanic_society_of_america_museum_613_west_155th_street","@context":"http://schema.org","@type":"Museum"},{"@id":"http://nyc.pediacities.com/resource/Museum/holocaust_museum_studies_center_75_w_205th_st","OBJECTID":"42","Shape":"(40.87835819800006, -73.89098784299995)","name":"Holocaust Museum & Studies Center","telephone":"(718) 817-7700","url":"http://www.holocauststudies.org/","streetAddress":"75 W 205th St","streetAddress/address2":" ","addressLocality":"Bronx","postalCode":"10468","loc":"[-73.89098784299995,40.87835819800006]","longitude":"-73.89098784299995","latitude":"40.87835819800006","entityTitle":"holocaust_museum_studies_center_75_w_205th_st","@context":"http://schema.org","@type":"Museum"},{"@id":"http://nyc.pediacities.com/resource/Museum/hudson_waterfront_museum_and_showboat_barge_290_conover_st","OBJECTID":"43","Shape":"(40.67557226800005, -74.01808694199991)","name":"Hudson Waterfront Museum and Showboat Barge","telephone":"(718) 624-4719","url":"http://www.waterfrontmuseum.org/","streetAddress":"290 Conover St.","streetAddress/address2":" ","addressLocality":"Brooklyn","postalCode":"11231","loc":"[-74.01808694199991,40.67557226800005]","longitude":"-74.01808694199991","latitude":"40.67557226800005","entityTitle":"hudson_waterfront_museum_and_showboat_barge_290_conover_st","@context":"http://schema.org","@type":"Museum"},{"@id":"http://nyc.pediacities.com/resource/Museum/international_center_of_photography_1133_avenue_of_the_americas","OBJECTID":"44","Shape":"(40.756021485000076, -73.98383672499995)","name":"International Center of Photography","telephone":"(212) 857-0000","url":"http://www.icp.org/","streetAddress":"1133 Avenue Of The Americas","streetAddress/address2":" ","addressLocality":"New York","postalCode":"10036","loc":"[-73.98383672499995,40.756021485000076]","longitude":"-73.98383672499995","latitude":"40.756021485000076","entityTitle":"international_center_of_photography_1133_avenue_of_the_americas","@context":"http://schema.org","@type":"Museum"},{"@id":"http://nyc.pediacities.com/resource/Museum/intrepid_sea_air_space_museum_pier_86_12th_ave_46th_street","OBJECTID":"45","Shape":"(40.76478360700008, -74.00089180499992)","name":"Intrepid Sea-Air-Space Museum","telephone":"(212) 245-0072","url":"http://www.intrepidmuseum.org/","streetAddress":"Pier 86 12th Ave. & 46th Street","streetAddress/address2":" ","addressLocality":"New York","postalCode":"10036","loc":"[-74.00089180499992,40.76478360700008]","longitude":"-74.00089180499992","latitude":"40.76478360700008","entityTitle":"intrepid_sea_air_space_museum_pier_86_12th_ave_46th_street","@context":"http://schema.org","@type":"Museum"},{"@id":"http://nyc.pediacities.com/resource/Museum/isamu_noguchi_garden_museum_32_37_vernon_boulevard","OBJECTID":"46","Shape":"(40.76695694500006, -73.93765514499995)","name":"Isamu Noguchi Garden Museum","telephone":"(718) 204-7088","url":"http://www.noguchi.org/","streetAddress":"32-37 Vernon Boulevard","streetAddress/address2":" ","addressLocality":"Long Island City","postalCode":"11106","loc":"[-73.93765514499995,40.76695694500006]","longitude":"-73.93765514499995","latitude":"40.76695694500006","entityTitle":"isamu_noguchi_garden_museum_32_37_vernon_boulevard","@context":"http://schema.org","@type":"Museum"},{"@id":"http://nyc.pediacities.com/resource/Museum/italian_american_museum_155_mulberry_st","OBJECTID":"47","Shape":"(40.719194962000074, -73.99749410699991)","name":"Italian American Museum","telephone":"(212) 965-9000","url":"http://www.italianamericanmuseum.org/","streetAddress":"155 Mulberry St.","streetAddress/address2":" ","addressLocality":"New York","postalCode":"10013","loc":"[-73.99749410699991,40.719194962000074]","longitude":"-73.99749410699991","latitude":"40.719194962000074","entityTitle":"italian_american_museum_155_mulberry_st","@context":"http://schema.org","@type":"Museum"},{"@id":"http://nyc.pediacities.com/resource/Museum/jackie_robinson_museum_1_hudson_square","OBJECTID":"48","Shape":"(40.72335099600008, -74.00664185499994)","name":"Jackie Robinson Museum","telephone":"(212) 290-8600","url":"http://www.jackierobinson.org/","streetAddress":"1 Hudson Square","streetAddress/address2":"75 Varick Street 2nd Floor","addressLocality":"New York","postalCode":"10013","loc":"[-74.00664185499994,40.72335099600008]","longitude":"-74.00664185499994","latitude":"40.72335099600008","entityTitle":"jackie_robinson_museum_1_hudson_square","@context":"http://schema.org","@type":"Museum"},{"@id":"http://nyc.pediacities.com/resource/Museum/jacques_marchais_center_museum_of_tibetan_art_338_lighthouse_avenue","OBJECTID":"49","Shape":"(40.57631316900006, -74.1381233649999)","name":"Jacques Marchais Center Museum of Tibetan Art","telephone":"(718) 987-3500","url":"http://www.tibetanmuseum.org/","streetAddress":"338 Lighthouse Avenue","streetAddress/address2":" ","addressLocality":"Staten Island","postalCode":"10306","loc":"[-74.1381233649999,40.57631316900006]","longitude":"-74.1381233649999","latitude":"40.57631316900006","entityTitle":"jacques_marchais_center_museum_of_tibetan_art_338_lighthouse_avenue","@context":"http://schema.org","@type":"Museum"},{"@id":"http://nyc.pediacities.com/resource/Museum/jeffrey_s_hook_lighthouse_little_red_lighthouse_178th_street_at_the_hudson_river","OBJECTID":"50","Shape":"(40.850220369000056, -73.94694494599992)","name":"Jeffrey's Hook lighthouse (Little Red Lighthouse)","telephone":"(212) 304-2365","url":"http://www.nycgovparks.org/sub_about/parks_divisions/historic_houses/hh_little_red_light.html","streetAddress":"178th Street at the Hudson River","streetAddress/address2":" ","addressLocality":"New York","postalCode":"10033","loc":"[-73.94694494599992,40.850220369000056]","longitude":"-73.94694494599992","latitude":"40.850220369000056","entityTitle":"jeffrey_s_hook_lighthouse_little_red_lighthouse_178th_street_at_the_hudson_river","@context":"http://schema.org","@type":"Museum"},{"@id":"http://nyc.pediacities.com/resource/Museum/jewish_museum_1109_fifth_ave","OBJECTID":"51","Shape":"(40.78540259000005, -73.95718705799993)","name":"Jewish Museum","telephone":"(212) 423-3200","url":"http://www.thejewishmuseum.org/index.php","streetAddress":"1109 Fifth Ave","streetAddress/address2":" ","addressLocality":"New York","postalCode":"10128","loc":"[-73.95718705799993,40.78540259000005]","longitude":"-73.95718705799993","latitude":"40.78540259000005","entityTitle":"jewish_museum_1109_fifth_ave","@context":"http://schema.org","@type":"Museum"},{"@id":"http://nyc.pediacities.com/resource/Museum/john_j_harvey_fireboat_pier_66_at_west_26th_street","OBJECTID":"52","Shape":"(40.75233053000005, -74.00965483699991)","name":"John J. Harvey Fireboat","telephone":" ","url":"http://www.fireboat.org/","streetAddress":"Pier 66 at West 26th Street","streetAddress/address2":" ","addressLocality":"New York","postalCode":"10001","loc":"[-74.00965483699991,40.75233053000005]","longitude":"-74.00965483699991","latitude":"40.75233053000005","entityTitle":"john_j_harvey_fireboat_pier_66_at_west_26th_street","@context":"http://schema.org","@type":"Museum"},{"@id":"http://nyc.pediacities.com/resource/Museum/king_manor_museum_152_01_jamaica_avenue","OBJECTID":"53","Shape":"(40.70304235200007, -73.80376061999993)","name":"King Manor Museum","telephone":"(718) 206-0545","url":"http://www.kingmanor.org/","streetAddress":"152-01 Jamaica Avenue","streetAddress/address2":" ","addressLocality":"Queens","postalCode":"11432","loc":"[-73.80376061999993,40.70304235200007]","longitude":"-73.80376061999993","latitude":"40.70304235200007","entityTitle":"king_manor_museum_152_01_jamaica_avenue","@context":"http://schema.org","@type":"Museum"},{"@id":"http://nyc.pediacities.com/resource/Museum/kingsland_homestead_143_35_37th_avenue","OBJECTID":"54","Shape":"(40.76359603800006, -73.8241564189999)","name":"Kingsland Homestead","telephone":"(718) 206-0545","url":"http://www.queenshistoricalsociety.org/kingsland.html","streetAddress":"143-35 37th Avenue","streetAddress/address2":" ","addressLocality":"Queens","postalCode":"11354","loc":"[-73.8241564189999,40.76359603800006]","longitude":"-73.8241564189999","latitude":"40.76359603800006","entityTitle":"kingsland_homestead_143_35_37th_avenue","@context":"http://schema.org","@type":"Museum"},{"@id":"http://nyc.pediacities.com/resource/Museum/laguardia_and_wagner_archives_31_10_thomson_ave","OBJECTID":"55","Shape":"(40.74396040600004, -73.93514567999995)","name":"LaGuardia and Wagner Archives","telephone":"(718) 482-5065","url":"http://www.laguardiawagnerarchive.lagcc.cuny.edu/defaultc.htm","streetAddress":"31-10 Thomson Ave.","streetAddress/address2":"Fiorello H. LaGuardia Community College/CUNY Room E-238","addressLocality":"Queens","postalCode":"11101","loc":"[-73.93514567999995,40.74396040600004]","longitude":"-73.93514567999995","latitude":"40.74396040600004","entityTitle":"laguardia_and_wagner_archives_31_10_thomson_ave","@context":"http://schema.org","@type":"Museum"},{"@id":"http://nyc.pediacities.com/resource/Museum/lee_young_hee_museum_of_korean_culture_2_west_32nd_street","OBJECTID":"56","Shape":"(40.74719742800005, -73.98618832999995)","name":"Lee Young Hee Museum of Korean Culture","telephone":"(212) 560-0722","url":"http://www.lyhkm.org/","streetAddress":"2 West 32nd Street","streetAddress/address2":" Suite 301","addressLocality":"New York","postalCode":"10001","loc":"[-73.98618832999995,40.74719742800005]","longitude":"-73.98618832999995","latitude":"40.74719742800005","entityTitle":"lee_young_hee_museum_of_korean_culture_2_west_32nd_street","@context":"http://schema.org","@type":"Museum"},{"@id":"http://nyc.pediacities.com/resource/Museum/lefferts_historic_house_prospect_park_willink_entrance","OBJECTID":"57","Shape":"(40.664380289000064, -73.96381415999991)","name":"Lefferts Historic House","telephone":"(718) 789-2822","url":"http://www.prospectpark.org/visit/places/lefferts","streetAddress":"Prospect Park Willink Entrance","streetAddress/address2":"Flatbush and Ocean Avenues and Empire Boulevard","addressLocality":"Brooklyn","postalCode":"11215","loc":"[-73.96381415999991,40.664380289000064]","longitude":"-73.96381415999991","latitude":"40.664380289000064","entityTitle":"lefferts_historic_house_prospect_park_willink_entrance","@context":"http://schema.org","@type":"Museum"},{"@id":"http://nyc.pediacities.com/resource/Museum/madame_tussauds_wax_museum_234_w_42nd_street","OBJECTID":"58","Shape":"(40.75631849600006, -73.9887022609999)","name":"Madame Tussauds Wax Museum","telephone":"(800) 246-8872","url":"http://www.madametussauds.com/NewYork/","streetAddress":"234 W. 42nd Street","streetAddress/address2":" ","addressLocality":"New York","postalCode":"10036","loc":"[-73.9887022609999,40.75631849600006]","longitude":"-73.9887022609999","latitude":"40.75631849600006","entityTitle":"madame_tussauds_wax_museum_234_w_42nd_street","@context":"http://schema.org","@type":"Museum"},{"@id":"http://nyc.pediacities.com/resource/Museum/merchant_s_house_museum_29_east_fourth_street","OBJECTID":"59","Shape":"(40.72765775100004, -73.99234604799994)","name":"Merchant's House Museum","telephone":"(212) 777-1089","url":"http://www.merchantshouse.com/","streetAddress":"29 East Fourth Street","streetAddress/address2":" ","addressLocality":"New York","postalCode":"10003","loc":"[-73.99234604799994,40.72765775100004]","longitude":"-73.99234604799994","latitude":"40.72765775100004","entityTitle":"merchant_s_house_museum_29_east_fourth_street","@context":"http://schema.org","@type":"Museum"},{"@id":"http://nyc.pediacities.com/resource/Museum/metropolitan_museum_of_art_met_1000_fifth_avenue","OBJECTID":"60","Shape":"(40.77942387500008, -73.96345111099993)","name":"Metropolitan Museum of Art (MET)","telephone":"(212) 535-7710","url":"http://www.metmuseum.org/","streetAddress":"1000 Fifth Avenue","streetAddress/address2":" ","addressLocality":"New York","postalCode":"10028","loc":"[-73.96345111099993,40.77942387500008]","longitude":"-73.96345111099993","latitude":"40.77942387500008","entityTitle":"metropolitan_museum_of_art_met_1000_fifth_avenue","@context":"http://schema.org","@type":"Museum"},{"@id":"http://nyc.pediacities.com/resource/Museum/mexican_cultural_institute_of_new_york_27_e_39th_st","OBJECTID":"61","Shape":"(40.750784700000054, -73.97988117799991)","name":"Mexican Cultural Institute of New York","telephone":"(212) 217-6422","url":"http://www.lavitrina.com/","streetAddress":"27 E. 39th St.","streetAddress/address2":" ","addressLocality":"New York","postalCode":"10016","loc":"[-73.97988117799991,40.750784700000054]","longitude":"-73.97988117799991","latitude":"40.750784700000054","entityTitle":"mexican_cultural_institute_of_new_york_27_e_39th_st","@context":"http://schema.org","@type":"Museum"},{"@id":"http://nyc.pediacities.com/resource/Museum/morgan_library_and_museum_225_madison_avenue","OBJECTID":"62","Shape":"(40.749295405000055, -73.98132148499991)","name":"Morgan Library and Museum","telephone":"(212) 685-0008","url":"http://www.themorgan.org/home.asp","streetAddress":"225 Madison Avenue","streetAddress/address2":" ","addressLocality":"New York","postalCode":"10016","loc":"[-73.98132148499991,40.749295405000055]","longitude":"-73.98132148499991","latitude":"40.749295405000055","entityTitle":"morgan_library_and_museum_225_madison_avenue","@context":"http://schema.org","@type":"Museum"},{"@id":"http://nyc.pediacities.com/resource/Museum/morris_jumel_mansion_65_jumel_terrace","OBJECTID":"63","Shape":"(40.83444801300004, -73.93857438799995)","name":"Morris-Jumel Mansion","telephone":"(212) 923-8008","url":"http://www.morrisjumel.org/","streetAddress":"65 Jumel Terrace","streetAddress/address2":" ","addressLocality":"New York","postalCode":"10032","loc":"[-73.93857438799995,40.83444801300004]","longitude":"-73.93857438799995","latitude":"40.83444801300004","entityTitle":"morris_jumel_mansion_65_jumel_terrace","@context":"http://schema.org","@type":"Museum"},{"@id":"http://nyc.pediacities.com/resource/Museum/mount_vernon_hotel_museum_garden_421_east_61_street","OBJECTID":"64","Shape":"(40.76052611800009, -73.9597108289999)","name":"Mount Vernon Hotel Museum & Garden","telephone":"(212) 838-6878","url":"http://www.mvhm.org/","streetAddress":"421 East 61 Street","streetAddress/address2":" ","addressLocality":"New York","postalCode":"10021","loc":"[-73.9597108289999,40.76052611800009]","longitude":"-73.9597108289999","latitude":"40.76052611800009","entityTitle":"mount_vernon_hotel_museum_garden_421_east_61_street","@context":"http://schema.org","@type":"Museum"},{"@id":"http://nyc.pediacities.com/resource/Museum/municipal_art_society_457_madison_avenue","OBJECTID":"65","Shape":"(40.758248639000044, -73.97499986999992)","name":"Municipal Art Society","telephone":"(212) 935-3960","url":"http://mas.org/","streetAddress":"457 Madison Avenue","streetAddress/address2":" ","addressLocality":"New York","postalCode":"10022","loc":"[-73.97499986999992,40.758248639000044]","longitude":"-73.97499986999992","latitude":"40.758248639000044","entityTitle":"municipal_art_society_457_madison_avenue","@context":"http://schema.org","@type":"Museum"},{"@id":"http://nyc.pediacities.com/resource/Museum/museum_for_african_art_36_01_43rd_avenue","OBJECTID":"66","Shape":"(40.74634207200006, -73.92822391099992)","name":"Museum for African Art","telephone":"(718) 784-7700","url":"http://www.africanart.org/","streetAddress":"36-01 43rd Avenue","streetAddress/address2":" 3rd Floor","addressLocality":"Queens","postalCode":"11101","loc":"[-73.92822391099992,40.74634207200006]","longitude":"-73.92822391099992","latitude":"40.74634207200006","entityTitle":"museum_for_african_art_36_01_43rd_avenue","@context":"http://schema.org","@type":"Museum"},{"@id":"http://nyc.pediacities.com/resource/Museum/museum_of_american_finance_48_wall_street","OBJECTID":"67","Shape":"(40.70648492200007, -74.0091216049999)","name":"Museum of American Finance","telephone":"(212) 908-4110","url":"http://www.moaf.org/index","streetAddress":"48 Wall Street","streetAddress/address2":" ","addressLocality":"New York","postalCode":"10005","loc":"[-74.0091216049999,40.70648492200007]","longitude":"-74.0091216049999","latitude":"40.70648492200007","entityTitle":"museum_of_american_finance_48_wall_street","@context":"http://schema.org","@type":"Museum"},{"@id":"http://nyc.pediacities.com/resource/Museum/museum_of_american_illustration_128_e_63d_st","OBJECTID":"68","Shape":"(40.76471595500004, -73.96690030999991)","name":"Museum of American Illustration","telephone":"(212) 838-2560","url":"http://societyillustrators.org/museum/index.cms","streetAddress":"128 E. 63d St.","streetAddress/address2":" ","addressLocality":"New York","postalCode":"10021","loc":"[-73.96690030999991,40.76471595500004]","longitude":"-73.96690030999991","latitude":"40.76471595500004","entityTitle":"museum_of_american_illustration_128_e_63d_st","@context":"http://schema.org","@type":"Museum"},{"@id":"http://nyc.pediacities.com/resource/Museum/museum_of_arts_design_mad_2_columbus_circle","OBJECTID":"69","Shape":"(40.76740640700007, -73.98200725099991)","name":"Museum of Arts & Design (MAD)","telephone":"(212) 299-7777","url":"http://www.madmuseum.org/","streetAddress":"2 Columbus Circle","streetAddress/address2":" ","addressLocality":"New York","postalCode":"10019","loc":"[-73.98200725099991,40.76740640700007]","longitude":"-73.98200725099991","latitude":"40.76740640700007","entityTitle":"museum_of_arts_design_mad_2_columbus_circle","@context":"http://schema.org","@type":"Museum"},{"@id":"http://nyc.pediacities.com/resource/Museum/museum_of_biblical_art_1865_broadway","OBJECTID":"70","Shape":"(40.77025274400006, -73.98272584199992)","name":"Museum of Biblical Art","telephone":"(212) 408-1200","url":"http://www.mobia.org/","streetAddress":"1865 Broadway","streetAddress/address2":" ","addressLocality":"New York","postalCode":"10023","loc":"[-73.98272584199992,40.77025274400006]","longitude":"-73.98272584199992","latitude":"40.77025274400006","entityTitle":"museum_of_biblical_art_1865_broadway","@context":"http://schema.org","@type":"Museum"},{"@id":"http://nyc.pediacities.com/resource/Museum/museum_of_chinese_in_america_215_centre_street","OBJECTID":"71","Shape":"(40.71945427900005, -73.99919191799995)","name":"Museum Of Chinese In America","telephone":"(212) 619-4785","url":"http://www.mocanyc.org/","streetAddress":"215 Centre Street","streetAddress/address2":" ","addressLocality":"New York","postalCode":"10013","loc":"[-73.99919191799995,40.71945427900005]","longitude":"-73.99919191799995","latitude":"40.71945427900005","entityTitle":"museum_of_chinese_in_america_215_centre_street","@context":"http://schema.org","@type":"Museum"},{"@id":"http://nyc.pediacities.com/resource/Museum/museum_of_comic_and_cartoon_art_mocca_594_broadway","OBJECTID":"72","Shape":"(40.72479828000007, -73.99670247699993)","name":"Museum of Comic and Cartoon Art (MoCCA)","telephone":"(212) 254 3511","url":"http://www.moccany.org/","streetAddress":"594 Broadway","streetAddress/address2":" Suite 401","addressLocality":"New York","postalCode":"10012","loc":"[-73.99670247699993,40.72479828000007]","longitude":"-73.99670247699993","latitude":"40.72479828000007","entityTitle":"museum_of_comic_and_cartoon_art_mocca_594_broadway","@context":"http://schema.org","@type":"Museum"},{"@id":"http://nyc.pediacities.com/resource/Museum/museum_of_contemporary_african_diasporan_arts_mocada_80_hanson_place","OBJECTID":"73","Shape":"(40.68524547700008, -73.97442477599992)","name":"Museum of Contemporary African Diasporan Arts (MoCADA)","telephone":"(718) 230-0492","url":"http://www.mocada.org/","streetAddress":"80 Hanson Place","streetAddress/address2":" ","addressLocality":"Brooklyn","postalCode":"11217","loc":"[-73.97442477599992,40.68524547700008]","longitude":"-73.97442477599992","latitude":"40.68524547700008","entityTitle":"museum_of_contemporary_african_diasporan_arts_mocada_80_hanson_place","@context":"http://schema.org","@type":"Museum"},{"@id":"http://nyc.pediacities.com/resource/Museum/museum_of_jewish_heritage_36_battery_place","OBJECTID":"74","Shape":"(40.70598698100008, -74.01858571699995)","name":"Museum of Jewish Heritage","telephone":"(646) 437-4200","url":"http://www.mjhnyc.org/index.htm","streetAddress":"36 Battery Place","streetAddress/address2":" ","addressLocality":"New York","postalCode":"10280","loc":"[-74.01858571699995,40.70598698100008]","longitude":"-74.01858571699995","latitude":"40.70598698100008","entityTitle":"museum_of_jewish_heritage_36_battery_place","@context":"http://schema.org","@type":"Museum"},{"@id":"http://nyc.pediacities.com/resource/Museum/museum_of_modern_art_moma_11_west_53rd_street","OBJECTID":"75","Shape":"(40.761186974000054, -73.97700363099995)","name":"Museum of Modern Art (MoMA)","telephone":"(212) 708-9400","url":"http://www.moma.org/","streetAddress":"11 West 53rd Street","streetAddress/address2":" ","addressLocality":"New York","postalCode":"10019","loc":"[-73.97700363099995,40.761186974000054]","longitude":"-73.97700363099995","latitude":"40.761186974000054","entityTitle":"museum_of_modern_art_moma_11_west_53rd_street","@context":"http://schema.org","@type":"Museum"},{"@id":"http://nyc.pediacities.com/resource/Museum/museum_of_the_city_of_new_york_1220_fifth_avenue","OBJECTID":"76","Shape":"(40.79250936800008, -73.95191697399991)","name":"Museum of the City of New York","telephone":"(212) 534-1672","url":"http://www.mcny.org","streetAddress":"1220 Fifth Avenue","streetAddress/address2":" ","addressLocality":"New York","postalCode":"10029","loc":"[-73.95191697399991,40.79250936800008]","longitude":"-73.95191697399991","latitude":"40.79250936800008","entityTitle":"museum_of_the_city_of_new_york_1220_fifth_avenue","@context":"http://schema.org","@type":"Museum"},{"@id":"http://nyc.pediacities.com/resource/Museum/museum_of_the_moving_image_35_avenue_at_36_street","OBJECTID":"77","Shape":"(40.75694482100005, -73.92451017299993)","name":"Museum of the Moving Image","telephone":"(718) 784-4520","url":"http://www.movingimage.us/site/site.php","streetAddress":"35 Avenue at 36 Street","streetAddress/address2":" ","addressLocality":"Queens","postalCode":"11106","loc":"[-73.92451017299993,40.75694482100005]","longitude":"-73.92451017299993","latitude":"40.75694482100005","entityTitle":"museum_of_the_moving_image_35_avenue_at_36_street","@context":"http://schema.org","@type":"Museum"},{"@id":"http://nyc.pediacities.com/resource/Museum/national_academy_museum_1083_5th_avenue","OBJECTID":"78","Shape":"(40.78361350100005, -73.95849177299993)","name":"National Academy Museum","telephone":"(212) 369-4880","url":"https://nationalacademy.org/index.asp","streetAddress":"1083 5th Avenue","streetAddress/address2":" ","addressLocality":"New York","postalCode":"10128","loc":"[-73.95849177299993,40.78361350100005]","longitude":"-73.95849177299993","latitude":"40.78361350100005","entityTitle":"national_academy_museum_1083_5th_avenue","@context":"http://schema.org","@type":"Museum"},{"@id":"http://nyc.pediacities.com/resource/Museum/national_lighthouse_museum_1_lighthouse_plaza","OBJECTID":"79","Shape":"(40.640949350000085, -74.07373712999993)","name":"National Lighthouse Museum","telephone":"(718) 556-1681","url":"http://statenislandusa.com/pages/lighthouse.html","streetAddress":"1 Lighthouse Plaza","streetAddress/address2":" ","addressLocality":"Staten Island","postalCode":"10301","loc":"[-74.07373712999993,40.640949350000085]","longitude":"-74.07373712999993","latitude":"40.640949350000085","entityTitle":"national_lighthouse_museum_1_lighthouse_plaza","@context":"http://schema.org","@type":"Museum"},{"@id":"http://nyc.pediacities.com/resource/Museum/national_museum_of_the_american_indian_1_bowling_green","OBJECTID":"80","Shape":"(40.70432159000006, -74.01372704599993)","name":"National Museum of the American Indian","telephone":"(212) 514-3700","url":"http://www.nmai.si.edu/","streetAddress":"1 Bowling Green","streetAddress/address2":" ","addressLocality":"New York","postalCode":"10004","loc":"[-74.01372704599993,40.70432159000006]","longitude":"-74.01372704599993","latitude":"40.70432159000006","entityTitle":"national_museum_of_the_american_indian_1_bowling_green","@context":"http://schema.org","@type":"Museum"},{"@id":"http://nyc.pediacities.com/resource/Museum/national_september_11_memorial_museum_at_the_world_trade_center_1_liberty_plaza","OBJECTID":"81","Shape":"(40.70965482100007, -74.0109156609999)","name":"National September 11 Memorial & Museum at the World Trade Center","telephone":"(212) 227-7722","url":"http://www.national911memorial.org/site/PageServer?pagename=New_Home","streetAddress":"1 Liberty Plaza","streetAddress/address2":" 20th Floor","addressLocality":"New York","postalCode":"10006","loc":"[-74.0109156609999,40.70965482100007]","longitude":"-74.0109156609999","latitude":"40.70965482100007","entityTitle":"national_september_11_memorial_museum_at_the_world_trade_center_1_liberty_plaza","@context":"http://schema.org","@type":"Museum"},{"@id":"http://nyc.pediacities.com/resource/Museum/neue_galerie_new_york_1048_fifth_avenue","OBJECTID":"82","Shape":"(40.78124266800006, -73.96024812499991)","name":"Neue Galerie New York","telephone":"(212) 628-6200","url":"http://www.neuegalerie.org/","streetAddress":"1048 Fifth Avenue","streetAddress/address2":" ","addressLocality":"New York","postalCode":"10028","loc":"[-73.96024812499991,40.78124266800006]","longitude":"-73.96024812499991","latitude":"40.78124266800006","entityTitle":"neue_galerie_new_york_1048_fifth_avenue","@context":"http://schema.org","@type":"Museum"},{"@id":"http://nyc.pediacities.com/resource/Museum/new_museum_of_contemporary_art_235_bowery","OBJECTID":"83","Shape":"(40.72234703500004, -73.99283879199993)","name":"New Museum of Contemporary Art","telephone":"(212) 219-1222","url":"http://www.newmuseum.org/","streetAddress":"235 Bowery","streetAddress/address2":" ","addressLocality":"New York","postalCode":"10002","loc":"[-73.99283879199993,40.72234703500004]","longitude":"-73.99283879199993","latitude":"40.72234703500004","entityTitle":"new_museum_of_contemporary_art_235_bowery","@context":"http://schema.org","@type":"Museum"},{"@id":"http://nyc.pediacities.com/resource/Museum/new_york_city_fire_museum_278_spring_street","OBJECTID":"84","Shape":"(40.725572139000064, -74.00693426099991)","name":"New York City Fire Museum","telephone":"(212) 691-1303","url":"http://www.nycfiremuseum.org/","streetAddress":"278 Spring Street","streetAddress/address2":" ","addressLocality":"New York","postalCode":"10012","loc":"[-74.00693426099991,40.725572139000064]","longitude":"-74.00693426099991","latitude":"40.725572139000064","entityTitle":"new_york_city_fire_museum_278_spring_street","@context":"http://schema.org","@type":"Museum"},{"@id":"http://nyc.pediacities.com/resource/Museum/new_york_city_police_museum_100_old_slip","OBJECTID":"85","Shape":"(40.70347862400007, -74.00811754499995)","name":"New York City Police Museum","telephone":"(212) 480-3100","url":"http://www.nycpolicemuseum.org/","streetAddress":"100 Old Slip","streetAddress/address2":" ","addressLocality":"New York","postalCode":"10038","loc":"[-74.00811754499995,40.70347862400007]","longitude":"-74.00811754499995","latitude":"40.70347862400007","entityTitle":"new_york_city_police_museum_100_old_slip","@context":"http://schema.org","@type":"Museum"},{"@id":"http://nyc.pediacities.com/resource/Museum/new_york_hall_of_science_47_01_111th_street","OBJECTID":"86","Shape":"(40.74714812000008, -73.85168679599991)","name":"New York Hall of Science","telephone":"(718) 699-0005","url":"http://www.nysci.org/","streetAddress":"47-01 111th Street","streetAddress/address2":" ","addressLocality":"Queens","postalCode":"11368","loc":"[-73.85168679599991,40.74714812000008]","longitude":"-73.85168679599991","latitude":"40.74714812000008","entityTitle":"new_york_hall_of_science_47_01_111th_street","@context":"http://schema.org","@type":"Museum"},{"@id":"http://nyc.pediacities.com/resource/Museum/new_york_historical_society_2_west_77th_street","OBJECTID":"87","Shape":"(40.77927357500005, -73.9742575379999)","name":"New York Historical Society","telephone":"(212) 873-3400","url":"https://www.nyhistory.org/web/","streetAddress":"2 West 77th Street","streetAddress/address2":" ","addressLocality":"New York","postalCode":"10024","loc":"[-73.9742575379999,40.77927357500005]","longitude":"-73.9742575379999","latitude":"40.77927357500005","entityTitle":"new_york_historical_society_2_west_77th_street","@context":"http://schema.org","@type":"Museum"},{"@id":"http://nyc.pediacities.com/resource/Museum/new_york_tolerance_center_50_e_42nd_st","OBJECTID":"88","Shape":"(40.752423254000064, -73.97912411199991)","name":"New York Tolerance Center","telephone":"(212) 697-1180","url":"http://www.kintera.org/site/pp.asp?c=fwLYKnN8LzH&b=242506","streetAddress":"50 E 42nd St","streetAddress/address2":" ","addressLocality":"New York","postalCode":"10017","loc":"[-73.97912411199991,40.752423254000064]","longitude":"-73.97912411199991","latitude":"40.752423254000064","entityTitle":"new_york_tolerance_center_50_e_42nd_st","@context":"http://schema.org","@type":"Museum"},{"@id":"http://nyc.pediacities.com/resource/Museum/new_york_transit_museum_boerum_pl_schermenhorn_street","OBJECTID":"89","Shape":"(40.69052403100005, -73.99002597099991)","name":"New York Transit Museum","telephone":"(718) 694-4915","url":"http://www.mta.info/mta/museum/","streetAddress":"Boerum Pl. & Schermenhorn Street","streetAddress/address2":" ","addressLocality":"Brooklyn","postalCode":"0","loc":"[-73.99002597099991,40.69052403100005]","longitude":"-73.99002597099991","latitude":"40.69052403100005","entityTitle":"new_york_transit_museum_boerum_pl_schermenhorn_street","@context":"http://schema.org","@type":"Museum"},{"@id":"http://nyc.pediacities.com/resource/Museum/nicholas_roerich_museum_319_west_107_street","OBJECTID":"90","Shape":"(40.80291433300005, -73.96902249699991)","name":"Nicholas Roerich Museum","telephone":"(212) 864-7752","url":"http://www.roerich.org/","streetAddress":"319 West 107 Street","streetAddress/address2":" ","addressLocality":"New York","postalCode":"10025","loc":"[-73.96902249699991,40.80291433300005]","longitude":"-73.96902249699991","latitude":"40.80291433300005","entityTitle":"nicholas_roerich_museum_319_west_107_street","@context":"http://schema.org","@type":"Museum"},{"@id":"http://nyc.pediacities.com/resource/Museum/noble_maritime_collection_1000_richmond_terrace","OBJECTID":"91","Shape":"(40.64431227700004, -74.10177203799992)","name":"Noble Maritime Collection","telephone":"(718) 447-6490","url":"http://www.noblemaritime.org/","streetAddress":"1000 Richmond Terrace","streetAddress/address2":" ","addressLocality":"Staten Island","postalCode":"10301","loc":"[-74.10177203799992,40.64431227700004]","longitude":"-74.10177203799992","latitude":"40.64431227700004","entityTitle":"noble_maritime_collection_1000_richmond_terrace","@context":"http://schema.org","@type":"Museum"},{"@id":"http://nyc.pediacities.com/resource/Museum/old_stone_house_326_5th_avenue","OBJECTID":"92","Shape":"(40.67299380600008, -73.98461861599992)","name":"Old Stone House","telephone":"(718) 768-3195","url":"http://www.theoldstonehouse.org/","streetAddress":"326 5th Avenue","streetAddress/address2":" ","addressLocality":"Brooklyn","postalCode":"11215","loc":"[-73.98461861599992,40.67299380600008]","longitude":"-73.98461861599992","latitude":"40.67299380600008","entityTitle":"old_stone_house_326_5th_avenue","@context":"http://schema.org","@type":"Museum"},{"@id":"http://nyc.pediacities.com/resource/Museum/p_s_1_contemporary_art_center_22_25_jackson_ave","OBJECTID":"93","Shape":"(40.74583980300008, -73.9462124179999)","name":"P.S. 1 Contemporary Art Center","telephone":"(718) 784-2084","url":"http://www.ps1.org/","streetAddress":"22-25 Jackson Ave.","streetAddress/address2":" ","addressLocality":"Queens","postalCode":"11101","loc":"[-73.9462124179999,40.74583980300008]","longitude":"-73.9462124179999","latitude":"40.74583980300008","entityTitle":"p_s_1_contemporary_art_center_22_25_jackson_ave","@context":"http://schema.org","@type":"Museum"},{"@id":"http://nyc.pediacities.com/resource/Museum/paley_center_for_media_formerly_museum_of_television_radio_25_west_52_street","OBJECTID":"94","Shape":"(40.76057397200009, -73.97760161399992)","name":"Paley Center For Media (formerly Museum Of Television & Radio)","telephone":"(212) 621-6800","url":"http://www.paleycenter.org/","streetAddress":"25 West 52 Street","streetAddress/address2":" ","addressLocality":"New York","postalCode":"10019","loc":"[-73.97760161399992,40.76057397200009]","longitude":"-73.97760161399992","latitude":"40.76057397200009","entityTitle":"paley_center_for_media_formerly_museum_of_television_radio_25_west_52_street","@context":"http://schema.org","@type":"Museum"},{"@id":"http://nyc.pediacities.com/resource/Museum/queens_art_museum_bulova_corporate_center_75_20_astoria_blvd","OBJECTID":"95","Shape":"(40.764607589000036, -73.89314845399991)","name":"Queens Art Museum - Bulova Corporate Center","telephone":"(516) 624-1910","url":"http://www.bdg.net/properties/1/","streetAddress":"75-20 Astoria Blvd.","streetAddress/address2":" ","addressLocality":"Jackson Heights","postalCode":"11386","loc":"[-73.89314845399991,40.764607589000036]","longitude":"-73.89314845399991","latitude":"40.764607589000036","entityTitle":"queens_art_museum_bulova_corporate_center_75_20_astoria_blvd","@context":"http://schema.org","@type":"Museum"},{"@id":"http://nyc.pediacities.com/resource/Museum/queens_county_farm_museum_73_50_little_neck_parkway","OBJECTID":"96","Shape":"(40.745569938000074, -73.72573660699993)","name":"Queens County Farm Museum","telephone":"(718) 347-3276","url":"http://www.queensfarm.org/","streetAddress":"73-50 Little Neck Parkway","streetAddress/address2":" ","addressLocality":"Queens","postalCode":"11004","loc":"[-73.72573660699993,40.745569938000074]","longitude":"-73.72573660699993","latitude":"40.745569938000074","entityTitle":"queens_county_farm_museum_73_50_little_neck_parkway","@context":"http://schema.org","@type":"Museum"},{"@id":"http://nyc.pediacities.com/resource/Museum/queens_museum_of_art_queens_museum_of_art","OBJECTID":"97","Shape":"(40.745843198000046, -73.84676275899994)","name":"Queens Museum of Art","telephone":"(718) 592-9700","url":"http://www.queensmuseum.org/","streetAddress":"Queens Museum of Art","streetAddress/address2":"Flushing Meadows Corona Park","addressLocality":"Queens","postalCode":"11368","loc":"[-73.84676275899994,40.745843198000046]","longitude":"-73.84676275899994","latitude":"40.745843198000046","entityTitle":"queens_museum_of_art_queens_museum_of_art","@context":"http://schema.org","@type":"Museum"},{"@id":"http://nyc.pediacities.com/resource/Museum/rose_center_for_earth_and_space_hayden_planetarium_15_west_81st_street","OBJECTID":"98","Shape":"(40.782860166000034, -73.97257491099992)","name":"Rose Center for Earth and Space (Hayden Planetarium)","telephone":"(212) 769-5100","url":"http://www.haydenplanetarium.org/index.php","streetAddress":"15 West 81st Street","streetAddress/address2":" ","addressLocality":"New York","postalCode":"10024","loc":"[-73.97257491099992,40.782860166000034]","longitude":"-73.97257491099992","latitude":"40.782860166000034","entityTitle":"rose_center_for_earth_and_space_hayden_planetarium_15_west_81st_street","@context":"http://schema.org","@type":"Museum"},{"@id":"http://nyc.pediacities.com/resource/Museum/rose_museum_at_carnegie_hall_154_west_57th_street","OBJECTID":"99","Shape":"(40.76501264700005, -73.97991050299993)","name":"Rose Museum at Carnegie Hall","telephone":"(212) 903-9629","url":"http://www.carnegiehall.org/textSite/the_basics/art_museum_archives.html","streetAddress":"154 West 57th Street","streetAddress/address2":" ","addressLocality":"New York","postalCode":"0","loc":"[-73.97991050299993,40.76501264700005]","longitude":"-73.97991050299993","latitude":"40.76501264700005","entityTitle":"rose_museum_at_carnegie_hall_154_west_57th_street","@context":"http://schema.org","@type":"Museum"},{"@id":"http://nyc.pediacities.com/resource/Museum/rubin_museum_of_art_150_west_17th_street","OBJECTID":"100","Shape":"(40.740020713000035, -73.9977915259999)","name":"Rubin Museum of Art","telephone":"(212) 620-5000","url":"http://www.rmanyc.org/","streetAddress":"150 West 17th Street","streetAddress/address2":" ","addressLocality":"New York","postalCode":"10011","loc":"[-73.9977915259999,40.740020713000035]","longitude":"-73.9977915259999","latitude":"40.740020713000035","entityTitle":"rubin_museum_of_art_150_west_17th_street","@context":"http://schema.org","@type":"Museum"},{"@id":"http://nyc.pediacities.com/resource/Museum/sandy_ground_historical_society_1538_woodrow_road","OBJECTID":"101","Shape":"(40.54097868800005, -74.21650282099995)","name":"Sandy Ground Historical Society","telephone":"(718) 317-5796","url":"http://statenislandusa.com/pages/sandy_ground.html","streetAddress":"1538 Woodrow Road","streetAddress/address2":" ","addressLocality":"Staten Island","postalCode":"0","loc":"[-74.21650282099995,40.54097868800005]","longitude":"-74.21650282099995","latitude":"40.54097868800005","entityTitle":"sandy_ground_historical_society_1538_woodrow_road","@context":"http://schema.org","@type":"Museum"},{"@id":"http://nyc.pediacities.com/resource/Museum/scandinavia_house_the_nordic_center_in_america_58_park_ave","OBJECTID":"102","Shape":"(40.749447229000054, -73.98008843499991)","name":"Scandinavia House: The Nordic Center in America","telephone":"(212) 879-9779","url":"http://www.scandinaviahouse.org/","streetAddress":"58 Park Ave.","streetAddress/address2":" ","addressLocality":"New York","postalCode":"10016","loc":"[-73.98008843499991,40.749447229000054]","longitude":"-73.98008843499991","latitude":"40.749447229000054","entityTitle":"scandinavia_house_the_nordic_center_in_america_58_park_ave","@context":"http://schema.org","@type":"Museum"},{"@id":"http://nyc.pediacities.com/resource/Museum/schomburg_center_for_research_in_black_culture_515_malcolm_x_boulevard","OBJECTID":"103","Shape":"(40.81461305900007, -73.94099075999992)","name":"Schomburg Center for Research in Black Culture","telephone":"(212) 491-2200","url":"http://www.nypl.org/research/sc/sc.html","streetAddress":"515 Malcolm X Boulevard","streetAddress/address2":" ","addressLocality":"New York","postalCode":"10037","loc":"[-73.94099075999992,40.81461305900007]","longitude":"-73.94099075999992","latitude":"40.81461305900007","entityTitle":"schomburg_center_for_research_in_black_culture_515_malcolm_x_boulevard","@context":"http://schema.org","@type":"Museum"},{"@id":"http://nyc.pediacities.com/resource/Museum/school_of_visual_arts_museum_209_e_23rd_st","OBJECTID":"104","Shape":"(40.738759524000045, -73.9822423249999)","name":"School of Visual Arts Museum","telephone":"(212) 592-2145","url":"http://www.schoolofvisualarts.edu/sa/index.jsp?sid0=201&page_id=482&event_id=865","streetAddress":"209 E. 23rd St.","streetAddress/address2":" ","addressLocality":"New York","postalCode":"10010","loc":"[-73.9822423249999,40.738759524000045]","longitude":"-73.9822423249999","latitude":"40.738759524000045","entityTitle":"school_of_visual_arts_museum_209_e_23rd_st","@context":"http://schema.org","@type":"Museum"},{"@id":"http://nyc.pediacities.com/resource/Museum/seguine_mansion_440_seguine_avenue","OBJECTID":"105","Shape":"(40.515214677000074, -74.1975892989999)","name":"Seguine Mansion","telephone":"(718) 667-6042","url":"http://www.historichousetrust.org/item.php?i_id=38","streetAddress":"440 Seguine Avenue","streetAddress/address2":" ","addressLocality":"Staten Island","postalCode":"10307","loc":"[-74.1975892989999,40.515214677000074]","longitude":"-74.1975892989999","latitude":"40.515214677000074","entityTitle":"seguine_mansion_440_seguine_avenue","@context":"http://schema.org","@type":"Museum"},{"@id":"http://nyc.pediacities.com/resource/Museum/skyscraper_museum_39_battery_place","OBJECTID":"106","Shape":"(40.705657864000045, -74.01756806799995)","name":"Skyscraper Museum","telephone":"(212) 968-1961","url":"http://www.skyscraper.org/home.htm","streetAddress":"39 Battery Place","streetAddress/address2":" ","addressLocality":"New York","postalCode":"10280","loc":"[-74.01756806799995,40.705657864000045]","longitude":"-74.01756806799995","latitude":"40.705657864000045","entityTitle":"skyscraper_museum_39_battery_place","@context":"http://schema.org","@type":"Museum"},{"@id":"http://nyc.pediacities.com/resource/Museum/solomon_r_guggenheim_museum_1071_fifth_avenue","OBJECTID":"107","Shape":"(40.78300980900008, -73.9589110199999)","name":"Solomon R. Guggenheim Museum","telephone":"(212) 423-3500","url":"http://www.guggenheim.org/","streetAddress":"1071 Fifth Avenue","streetAddress/address2":" ","addressLocality":"New York","postalCode":"10128","loc":"[-73.9589110199999,40.78300980900008]","longitude":"-73.9589110199999","latitude":"40.78300980900008","entityTitle":"solomon_r_guggenheim_museum_1071_fifth_avenue","@context":"http://schema.org","@type":"Museum"},{"@id":"http://nyc.pediacities.com/resource/Museum/sony_wonder_technology_lab_550_madison_ave","OBJECTID":"108","Shape":"(40.761470634000034, -73.97350782099994)","name":"Sony Wonder Technology Lab","telephone":"(212) 833-8100","url":"http://wondertechlab.sony.com/","streetAddress":"550 Madison Ave","streetAddress/address2":" Sony Plaza","addressLocality":"New York","postalCode":"10022","loc":"[-73.97350782099994,40.761470634000034]","longitude":"-73.97350782099994","latitude":"40.761470634000034","entityTitle":"sony_wonder_technology_lab_550_madison_ave","@context":"http://schema.org","@type":"Museum"},{"@id":"http://nyc.pediacities.com/resource/Museum/south_street_seaport_museum_12_fulton_street","OBJECTID":"109","Shape":"(40.706603691000055, -74.00372094099993)","name":"South Street Seaport Museum","telephone":"(212) 748-8600","url":"http://www.southstreetseaportmuseum.org/","streetAddress":"12 Fulton Street","streetAddress/address2":" ","addressLocality":"New York","postalCode":"10038","loc":"[-74.00372094099993,40.706603691000055]","longitude":"-74.00372094099993","latitude":"40.706603691000055","entityTitle":"south_street_seaport_museum_12_fulton_street","@context":"http://schema.org","@type":"Museum"},{"@id":"http://nyc.pediacities.com/resource/Museum/staten_island_children_s_museum_1000_richmond_terr","OBJECTID":"110","Shape":"(40.64270921600007, -74.10189210599992)","name":"Staten Island Children's Museum","telephone":"(718) 273-2060","url":"http://www.statenislandkids.org/","streetAddress":"1000 Richmond Terr.","streetAddress/address2":" ","addressLocality":"Staten Island","postalCode":"10301","loc":"[-74.10189210599992,40.64270921600007]","longitude":"-74.10189210599992","latitude":"40.64270921600007","entityTitle":"staten_island_children_s_museum_1000_richmond_terr","@context":"http://schema.org","@type":"Museum"},{"@id":"http://nyc.pediacities.com/resource/Museum/staten_island_museum_staten_island_institute_of_arts_sciences_75_stuyvesant_pl","OBJECTID":"111","Shape":"(40.644369511000036, -74.07766506399992)","name":"Staten Island Museum / Staten Island Institute of Arts & Sciences","telephone":"(718) 727-1135","url":"http://www.statenislandmuseum.org/","streetAddress":"75 Stuyvesant Pl.","streetAddress/address2":" ","addressLocality":"Staten Island","postalCode":"10301","loc":"[-74.07766506399992,40.644369511000036]","longitude":"-74.07766506399992","latitude":"40.644369511000036","entityTitle":"staten_island_museum_staten_island_institute_of_arts_sciences_75_stuyvesant_pl","@context":"http://schema.org","@type":"Museum"},{"@id":"http://nyc.pediacities.com/resource/Museum/studio_museum_in_harlem_144_west_125th_street","OBJECTID":"112","Shape":"(40.808245809000084, -73.94772615399995)","name":"Studio Museum in Harlem","telephone":"(212) 864-4500","url":"http://www.studiomuseum.org","streetAddress":"144 West 125th Street","streetAddress/address2":" ","addressLocality":"New York","postalCode":"10027","loc":"[-73.94772615399995,40.808245809000084]","longitude":"-73.94772615399995","latitude":"40.808245809000084","entityTitle":"studio_museum_in_harlem_144_west_125th_street","@context":"http://schema.org","@type":"Museum"},{"@id":"http://nyc.pediacities.com/resource/Museum/tenement_museum_108_orchard_street","OBJECTID":"113","Shape":"(40.718688031000056, -73.98967904799991)","name":"Tenement Museum","telephone":"(212) 431-0233","url":"http://www.tenement.org/","streetAddress":"108 Orchard Street","streetAddress/address2":" ","addressLocality":"New York","postalCode":"10002","loc":"[-73.98967904799991,40.718688031000056]","longitude":"-73.98967904799991","latitude":"40.718688031000056","entityTitle":"tenement_museum_108_orchard_street","@context":"http://schema.org","@type":"Museum"},{"@id":"http://nyc.pediacities.com/resource/Museum/the_freakatorium_el_museo_loco_57_clinton_st","OBJECTID":"114","Shape":"(40.719617061000065, -73.98501448899992)","name":"The Freakatorium, El Museo Loco","telephone":"(212) 375-0475","url":"http://www.freakatorium.com/","streetAddress":"57 Clinton St.","streetAddress/address2":" ","addressLocality":"New York","postalCode":"10002","loc":"[-73.98501448899992,40.719617061000065]","longitude":"-73.98501448899992","latitude":"40.719617061000065","entityTitle":"the_freakatorium_el_museo_loco_57_clinton_st","@context":"http://schema.org","@type":"Museum"},{"@id":"http://nyc.pediacities.com/resource/Museum/the_jazz_museum_in_harlem_104_e_126th_street","OBJECTID":"115","Shape":"(40.80527671800007, -73.9380587409999)","name":"The Jazz Museum in Harlem","telephone":"(212) 348-8300","url":"http://www.jazzmuseuminharlem.org/","streetAddress":"104 E. 126th Street","streetAddress/address2":" Suite 2D","addressLocality":"New York","postalCode":"10035","loc":"[-73.9380587409999,40.80527671800007]","longitude":"-73.9380587409999","latitude":"40.80527671800007","entityTitle":"the_jazz_museum_in_harlem_104_e_126th_street","@context":"http://schema.org","@type":"Museum"},{"@id":"http://nyc.pediacities.com/resource/Museum/the_jewish_children_s_museum_792_eastern_pkwy","OBJECTID":"116","Shape":"(40.668911911000066, -73.94196176999992)","name":"The Jewish Children's Museum","telephone":"(718) 467-0600","url":"http://www.jcmonline.org/","streetAddress":"792 Eastern Pkwy","streetAddress/address2":" ","addressLocality":"Brooklyn","postalCode":"11213","loc":"[-73.94196176999992,40.668911911000066]","longitude":"-73.94196176999992","latitude":"40.668911911000066","entityTitle":"the_jewish_children_s_museum_792_eastern_pkwy","@context":"http://schema.org","@type":"Museum"},{"@id":"http://nyc.pediacities.com/resource/Museum/the_museum_at_fit_7th_avenue_at_west_27th_street","OBJECTID":"117","Shape":"(40.74700870800007, -73.99392966799991)","name":"The Museum at FIT","telephone":"(212) 217-5800","url":"http://www.fitnyc.edu/306.asp","streetAddress":"7th Avenue at West 27th Street","streetAddress/address2":" ","addressLocality":"New York","postalCode":"10001","loc":"[-73.99392966799991,40.74700870800007]","longitude":"-73.99392966799991","latitude":"40.74700870800007","entityTitle":"the_museum_at_fit_7th_avenue_at_west_27th_street","@context":"http://schema.org","@type":"Museum"},{"@id":"http://nyc.pediacities.com/resource/Museum/theodore_roosevelt_birthplace_28_east_20th_street","OBJECTID":"118","Shape":"(40.73864234900009, -73.9890408519999)","name":"Theodore Roosevelt Birthplace","telephone":"(212) 260-1616","url":"http://www.nps.gov/thrb/index.htm","streetAddress":"28 East 20th Street","streetAddress/address2":" ","addressLocality":"New York","postalCode":"10003","loc":"[-73.9890408519999,40.73864234900009]","longitude":"-73.9890408519999","latitude":"40.73864234900009","entityTitle":"theodore_roosevelt_birthplace_28_east_20th_street","@context":"http://schema.org","@type":"Museum"},{"@id":"http://nyc.pediacities.com/resource/Museum/ukrainian_museum_222_east_6th_street","OBJECTID":"119","Shape":"(40.727677121000056, -73.9897570309999)","name":"Ukrainian Museum","telephone":"(212) 228-0110","url":"http://www.ukrainianmuseum.org/","streetAddress":"222 East 6th Street","streetAddress/address2":" ","addressLocality":"New York","postalCode":"10003","loc":"[-73.9897570309999,40.727677121000056]","longitude":"-73.9897570309999","latitude":"40.727677121000056","entityTitle":"ukrainian_museum_222_east_6th_street","@context":"http://schema.org","@type":"Museum"},{"@id":"http://nyc.pediacities.com/resource/Museum/valentine_varian_house_3266_bainbridge_ave","OBJECTID":"120","Shape":"(40.87738015800005, -73.87942471799994)","name":"Valentine-Varian House","telephone":"(718) 881-8900","url":"http://www.museumregister.com/US/NewYork/Bronx/ValentineVarianHouse/Info.html","streetAddress":"3266 Bainbridge Ave.","streetAddress/address2":" ","addressLocality":"Bronx","postalCode":"10467","loc":"[-73.87942471799994,40.87738015800005]","longitude":"-73.87942471799994","latitude":"40.87738015800005","entityTitle":"valentine_varian_house_3266_bainbridge_ave","@context":"http://schema.org","@type":"Museum"},{"@id":"http://nyc.pediacities.com/resource/Museum/van_cortlandt_house_museum_van_crtlandt_mansion","OBJECTID":"121","Shape":"(40.89111150100007, -73.89482256999992)","name":"Van Cortlandt House Museum","telephone":"(718) 543-3344","url":"http://www.vancortlandthouse.org/","streetAddress":"VAN CRTLANDT MANSION","streetAddress/address2":"Broadway at West 246th Street","addressLocality":"Bronx","postalCode":"10471","loc":"[-73.89482256999992,40.89111150100007]","longitude":"-73.89482256999992","latitude":"40.89111150100007","entityTitle":"van_cortlandt_house_museum_van_crtlandt_mansion","@context":"http://schema.org","@type":"Museum"},{"@id":"http://nyc.pediacities.com/resource/Museum/wave_hill_west_249th_street_independence_avenue","OBJECTID":"122","Shape":"(40.897885048000035, -73.91165376499993)","name":"Wave Hill","telephone":"(718) 549-3200","url":"http://wavehill.org/visit/","streetAddress":"West 249th Street & Independence Avenue","streetAddress/address2":" ","addressLocality":"Bronx","postalCode":"10471","loc":"[-73.91165376499993,40.897885048000035]","longitude":"-73.91165376499993","latitude":"40.897885048000035","entityTitle":"wave_hill_west_249th_street_independence_avenue","@context":"http://schema.org","@type":"Museum"},{"@id":"http://nyc.pediacities.com/resource/Museum/whitney_museum_of_american_art_945_madison_ave","OBJECTID":"123","Shape":"(40.77340762700004, -73.96383434599994)","name":"Whitney Museum of American Art","telephone":"1 (800) WHITNEY","url":"http://www.whitney.org/","streetAddress":"945 Madison Ave.","streetAddress/address2":" ","addressLocality":"New York","postalCode":"10021","loc":"[-73.96383434599994,40.77340762700004]","longitude":"-73.96383434599994","latitude":"40.77340762700004","entityTitle":"whitney_museum_of_american_art_945_madison_ave","@context":"http://schema.org","@type":"Museum"},{"@id":"http://nyc.pediacities.com/resource/Museum/wyckoff_farmhouse_museum_5816_clarendon_ave","OBJECTID":"124","Shape":"(40.64434101400008, -73.9207962989999)","name":"Wyckoff Farmhouse Museum","telephone":"(718) 629-5400","url":"http://www.wyckoffassociation.org/","streetAddress":"5816 Clarendon Ave","streetAddress/address2":" ","addressLocality":"Brooklyn","postalCode":"11203","loc":"[-73.9207962989999,40.64434101400008]","longitude":"-73.9207962989999","latitude":"40.64434101400008","entityTitle":"wyckoff_farmhouse_museum_5816_clarendon_ave","@context":"http://schema.org","@type":"Museum"},{"@id":"http://nyc.pediacities.com/resource/Museum/leo_baeck_institute_15_w_16th_st","OBJECTID":"125","Shape":"(40.73802787500006, -73.99376449399995)","name":"Leo Baeck Institute","telephone":"(212) 744-6400","url":"http://www.lbi.org/","streetAddress":"15 W. 16th St.","streetAddress/address2":" ","addressLocality":"New York","postalCode":"10011","loc":"[-73.99376449399995,40.73802787500006]","longitude":"-73.99376449399995","latitude":"40.73802787500006","entityTitle":"leo_baeck_institute_15_w_16th_st","@context":"http://schema.org","@type":"Museum"},{"@id":"http://nyc.pediacities.com/resource/Museum/american_sephardi_federation_sephardic_house_15_w_16th_st","OBJECTID":"126","Shape":"(40.73807756700006, -73.9938857969999)","name":"American Sephardi Federation / Sephardic House","telephone":"(212) 294-8350","url":"http://www.americansephardifederation.org/","streetAddress":"15 W. 16th St.","streetAddress/address2":" ","addressLocality":"New York","postalCode":"10011","loc":"[-73.9938857969999,40.73807756700006]","longitude":"-73.9938857969999","latitude":"40.73807756700006","entityTitle":"american_sephardi_federation_sephardic_house_15_w_16th_st","@context":"http://schema.org","@type":"Museum"},{"@id":"http://nyc.pediacities.com/resource/Museum/yivo_institute_for_jewish_research_15_w_16th_st","OBJECTID":"127","Shape":"(40.73796028000004, -73.9937942709999)","name":"YIVO Institute for Jewish Research","telephone":"(212) 246-6860","url":"http://www.yivoinstitute.org/","streetAddress":"15 W. 16th St.","streetAddress/address2":" ","addressLocality":"New York","postalCode":"10011","loc":"[-73.9937942709999,40.73796028000004]","longitude":"-73.9937942709999","latitude":"40.73796028000004","entityTitle":"yivo_institute_for_jewish_research_15_w_16th_st","@context":"http://schema.org","@type":"Museum"},{"@id":"http://nyc.pediacities.com/resource/Museum/american_jewish_historical_society_15_w_16th_st","OBJECTID":"128","Shape":"(40.73801571700005, -73.9939289049999)","name":"American Jewish Historical Society","telephone":"(212) 294-6160","url":"http://www.ajhs.org/","streetAddress":"15 W. 16th St.","streetAddress/address2":" ","addressLocality":"New York","postalCode":"10011","loc":"[-73.9939289049999,40.73801571700005]","longitude":"-73.9939289049999","latitude":"40.73801571700005","entityTitle":"american_jewish_historical_society_15_w_16th_st","@context":"http://schema.org","@type":"Museum"},{"@id":"http://nyc.pediacities.com/resource/Museum/yeshiva_university_museum_15_w_16th_st","OBJECTID":"129","Shape":"(40.738046017000045, -73.99381736999993)","name":"Yeshiva University Museum","telephone":"(212) 294-8330","url":"http://www.yumuseum.org/","streetAddress":"15 W. 16th St.","streetAddress/address2":" ","addressLocality":"New York","postalCode":"10011","loc":"[-73.99381736999993,40.738046017000045]","longitude":"-73.99381736999993","latitude":"40.738046017000045","entityTitle":"yeshiva_university_museum_15_w_16th_st","@context":"http://schema.org","@type":"Museum"},{"@id":"http://nyc.pediacities.com/resource/Museum/center_for_jewish_history_15_w_16th_st","OBJECTID":"130","Shape":"(40.737987098000076, -73.99386877199993)","name":"Center For Jewish History","telephone":"(212) 294-8301","url":"http://www.cjh.org","streetAddress":"15 W. 16th St.","streetAddress/address2":" ","addressLocality":"New York","postalCode":"10011","loc":"[-73.99386877199993,40.737987098000076]","longitude":"-73.99386877199993","latitude":"40.737987098000076","entityTitle":"center_for_jewish_history_15_w_16th_st","@context":"http://schema.org","@type":"Museum"}]